{
  "metaData": {
    "requestParameters": {
      "busCount": 8,
      "expressbusCount": 0,
      "subwayCount": 0,
      "airplaneCount": 0,
      "locale": "ko",
      "endY": "37.54417282802694",
      "endX": "126.9484912479837",
      "wideareaRouteCount": 0,
      "subwayBusCount": 2,
      "startY": "37.55200750679765",
      "startX": "126.9000838470429",
      "ferryCount": 0,
      "trainCount": 0,
      "reqDttm": "20230608160720"
    },
    "plan": {
      "itineraries": [
        {
          "fare": {
            "regular": {
              "totalFare": 1200,
              "currency": {
                "symbol": "￦",
                "currency": "원",
                "currencyCode": "KRW"
              }
            }
          },
          "totalTime": 1788,
          "legs": [
            {
              "mode": "WALK",
              "sectionTime": 676,
              "distance": 796,
              "start": {
                "name": "출발지",
                "lon": 126.9000838470429,
                "lat": 37.55200750679765
              },
              "end": {
                "name": "태양빌딩",
                "lon": 126.8995,
                "lat": 37.55611666666667
              },
              "steps": [
                {
                  "streetName": "보행자도로",
                  "distance": 277,
                  "description": "보행자도로 을 따라 277m 이동",
                  "linestring": "126.90008,37.55201 126.8997,37.552284 126.89867,37.55307 126.89858,37.553146 126.89853,37.553234 126.8985,37.553337 126.89845,37.553394 126.89841,37.553425 126.89792,37.553776"
                },
                {
                  "streetName": "",
                  "distance": 75,
                  "description": "지하보도 진입 후 75m 이동 ",
                  "linestring": "126.89792,37.553776 126.898506,37.554264"
                },
                {
                  "streetName": "",
                  "distance": 35,
                  "description": "우회전 후 35m 이동 ",
                  "linestring": "126.898506,37.554264 126.89863,37.554173 126.89862,37.554356"
                },
                {
                  "streetName": "",
                  "distance": 15,
                  "description": "우회전 후 15m 이동 ",
                  "linestring": "126.89862,37.554356 126.898735,37.554455"
                },
                {
                  "streetName": "",
                  "distance": 188,
                  "description": "좌회전 후 188m 이동 ",
                  "linestring": "126.898735,37.554455 126.89869,37.554493 126.89875,37.554546 126.8983,37.554867 126.89814,37.554985 126.897354,37.555576 126.89732,37.555614 126.89732,37.555622"
                },
                {
                  "streetName": "보행자도로",
                  "distance": 9,
                  "description": "우회전 후 보행자도로 을 따라 9m 이동 ",
                  "linestring": "126.89732,37.555622 126.89731,37.555656 126.897316,37.555676 126.89734,37.555687"
                },
                {
                  "streetName": "보행자도로",
                  "distance": 30,
                  "description": "횡단보도 후 보행자도로 을 따라 30m 이동 ",
                  "linestring": "126.89889,37.55602 126.89922,37.556065"
                },
                {
                  "streetName": "망원로",
                  "distance": 26,
                  "description": "연세선치과의원 에서 직진 후 망원로 을 따라 26m 이동 ",
                  "linestring": "126.89922,37.556065 126.89923,37.556084 126.89949,37.556137"
                }
              ]
            },
            {
              "mode": "BUS",
              "routeColor": "53B332",
              "sectionTime": 576,
              "route": "마을:마포09",
              "distance": 2974,
              "start": {
                "name": "태양빌딩",
                "lon": 126.8995,
                "lat": 37.55611666666667
              },
              "passStopList": {
                "stationList": [
                  {
                    "index": 0,
                    "stationName": "태양빌딩",
                    "lon": "126.899500",
                    "lat": "37.556117",
                    "stationID": "757454"
                  },
                  {
                    "index": 1,
                    "stationName": "망원교회",
                    "lon": "126.900258",
                    "lat": "37.556275",
                    "stationID": "757461"
                  },
                  {
                    "index": 2,
                    "stationName": "성원아파트",
                    "lon": "126.901631",
                    "lat": "37.556558",
                    "stationID": "757481"
                  },
                  {
                    "index": 3,
                    "stationName": "동교초등학교",
                    "lon": "126.903075",
                    "lat": "37.556864",
                    "stationID": "757504"
                  },
                  {
                    "index": 4,
                    "stationName": "망원동사거리",
                    "lon": "126.904311",
                    "lat": "37.557119",
                    "stationID": "757520"
                  },
                  {
                    "index": 5,
                    "stationName": "망원시장",
                    "lon": "126.905989",
                    "lat": "37.557464",
                    "stationID": "757541"
                  },
                  {
                    "index": 6,
                    "stationName": "구)망원우체국사거리",
                    "lon": "126.907853",
                    "lat": "37.557858",
                    "stationID": "757561"
                  },
                  {
                    "index": 7,
                    "stationName": "망원전철역",
                    "lon": "126.909925",
                    "lat": "37.556094",
                    "stationID": "757446"
                  },
                  {
                    "index": 8,
                    "stationName": "성산초등학교",
                    "lon": "126.912361",
                    "lat": "37.554253",
                    "stationID": "757322"
                  },
                  {
                    "index": 9,
                    "stationName": "고니빌딩",
                    "lon": "126.914044",
                    "lat": "37.554544",
                    "stationID": "757339"
                  },
                  {
                    "index": 10,
                    "stationName": "서교동주민센터",
                    "lon": "126.915364",
                    "lat": "37.554772",
                    "stationID": "757354"
                  },
                  {
                    "index": 11,
                    "stationName": "우리은행서교동지점",
                    "lon": "126.917433",
                    "lat": "37.553233",
                    "stationID": "757255"
                  },
                  {
                    "index": 12,
                    "stationName": "서교동(중)",
                    "lon": "126.919483",
                    "lat": "37.553603",
                    "stationID": "757280"
                  },
                  {
                    "index": 13,
                    "stationName": "홍대입구역",
                    "lon": "126.923531",
                    "lat": "37.556544",
                    "stationID": "757473"
                  },
                  {
                    "index": 14,
                    "stationName": "동교동삼거리(중)",
                    "lon": "126.928264",
                    "lat": "37.558164",
                    "stationID": "757580"
                  }
                ]
              },
              "end": {
                "name": "동교동삼거리(중)",
                "lon": 126.92826388888889,
                "lat": 37.55816388888889
              },
              "type": 3,
              "passShape": {
                "linestring": "126.899481,37.556150 126.900256,37.556311 126.901625,37.556594 126.901733,37.556617 126.903044,37.556889 126.904281,37.557147 126.904439,37.557181 126.904514,37.557197 126.905981,37.557500 126.907522,37.557817 126.907858,37.557894 126.908256,37.557983 126.909950,37.556125 126.911464,37.554464 126.911597,37.554286 126.911844,37.554186 126.912342,37.554286 126.912344,37.554286 126.914042,37.554581 126.915347,37.554806 126.915350,37.554806 126.915719,37.554858 126.916078,37.554419 126.916872,37.553764 126.917475,37.553247 126.918081,37.552731 126.918222,37.552708 126.918333,37.552722 126.919511,37.553597 126.921542,37.555106 126.921675,37.555206 126.921817,37.555311 126.923508,37.556578 126.926050,37.558478 126.926281,37.558589 126.926428,37.558625 126.926564,37.558644 126.926789,37.558647 126.926994,37.558611 126.928261,37.558142"
              }
            },
            {
              "mode": "TRANSFER",
              "sectionTime": 0,
              "distance": 0,
              "start": {
                "name": "동교동삼거리(중)",
                "lon": 126.92826388888889,
                "lat": 37.55816388888889
              },
              "end": {
                "name": "동교동삼거리(중)",
                "lon": 126.92826388888889,
                "lat": 37.55816388888889
              },
              "passShape": {
                "linestring": "126.928264,37.558164 126.928264,37.558164"
              }
            },
            {
              "mode": "BUS",
              "routeColor": "53B332",
              "sectionTime": 431,
              "route": "지선:7613",
              "distance": 2532,
              "start": {
                "name": "동교동삼거리(중)",
                "lon": 126.92826388888889,
                "lat": 37.55816388888889
              },
              "passStopList": {
                "stationList": [
                  {
                    "index": 0,
                    "stationName": "동교동삼거리(중)",
                    "lon": "126.928264",
                    "lat": "37.558164",
                    "stationID": "757580"
                  },
                  {
                    "index": 1,
                    "stationName": "신촌역",
                    "lon": "126.934767",
                    "lat": "37.555711",
                    "stationID": "757407"
                  },
                  {
                    "index": 2,
                    "stationName": "신촌로터리",
                    "lon": "126.936925",
                    "lat": "37.553867",
                    "stationID": "757293"
                  },
                  {
                    "index": 3,
                    "stationName": "서강대학교",
                    "lon": "126.937367",
                    "lat": "37.551822",
                    "stationID": "757183"
                  },
                  {
                    "index": 4,
                    "stationName": "광성중고등학교",
                    "lon": "126.938708",
                    "lat": "37.549314",
                    "stationID": "757070"
                  },
                  {
                    "index": 5,
                    "stationName": "대흥역",
                    "lon": "126.941192",
                    "lat": "37.548094",
                    "stationID": "756986"
                  },
                  {
                    "index": 6,
                    "stationName": "용강초등학교",
                    "lon": "126.943542",
                    "lat": "37.547058",
                    "stationID": "756926"
                  },
                  {
                    "index": 7,
                    "stationName": "동도중학교.서울디자인고등학교",
                    "lon": "126.946833",
                    "lat": "37.545614",
                    "stationID": "756848"
                  },
                  {
                    "index": 8,
                    "stationName": "공덕역1번출구",
                    "lon": "126.949372",
                    "lat": "37.544508",
                    "stationID": "756781"
                  }
                ]
              },
              "end": {
                "name": "공덕역1번출구",
                "lon": 126.94937222222222,
                "lat": 37.54450833333333
              },
              "type": 12,
              "passShape": {
                "linestring": "126.928261,37.558142 126.931608,37.556903 126.931744,37.556856 126.934833,37.555758 126.936192,37.555275 126.936483,37.555183 126.936708,37.555136 126.936794,37.554975 126.936850,37.554544 126.936969,37.553864 126.937194,37.552572 126.937389,37.551878 126.937411,37.551817 126.937564,37.551381 126.937794,37.550858 126.938333,37.549889 126.938533,37.549575 126.938706,37.549369 126.938731,37.549344 126.938850,37.549233 126.939011,37.549128 126.939256,37.549003 126.941208,37.548128 126.941769,37.547875 126.941928,37.547806 126.943556,37.547092 126.946075,37.545989 126.946833,37.545650 126.947872,37.545192 126.949397,37.544539"
              }
            },
            {
              "mode": "WALK",
              "sectionTime": 105,
              "distance": 100,
              "start": {
                "name": "공덕역1번출구",
                "lon": 126.94937222222222,
                "lat": 37.54450833333333
              },
              "end": {
                "name": "도착지",
                "lon": 126.9484912479837,
                "lat": 37.54417282802694
              },
              "steps": [
                {
                  "streetName": "백범로",
                  "distance": 18,
                  "description": "백범로 을 따라 18m 이동",
                  "linestring": "126.94935,37.54447 126.94934,37.544476 126.949165,37.54455"
                },
                {
                  "streetName": "",
                  "distance": 44,
                  "description": "청해수산 에서 좌회전 후 44m 이동 ",
                  "linestring": "126.949165,37.54455 126.949135,37.544502 126.94892,37.544224 126.94891,37.54421"
                },
                {
                  "streetName": "",
                  "distance": 6,
                  "description": "횡단보도 후 6m 이동 ",
                  "linestring": "126.94891,37.54421 126.94888,37.54416"
                },
                {
                  "streetName": "보행자도로",
                  "distance": 32,
                  "description": "우회전 후 보행자도로 을 따라 32m 이동 ",
                  "linestring": "126.94888,37.54416 126.94857,37.544296"
                }
              ]
            }
          ],
          "totalWalkTime": 781,
          "transferCount": 1,
          "totalDistance": 6054,
          "pathType": 2,
          "totalWalkDistance": 896
        },
        {
          "fare": {
            "regular": {
              "totalFare": 1200,
              "currency": {
                "symbol": "￦",
                "currency": "원",
                "currencyCode": "KRW"
              }
            }
          },
          "totalTime": 1791,
          "legs": [
            {
              "mode": "WALK",
              "sectionTime": 676,
              "distance": 796,
              "start": {
                "name": "출발지",
                "lon": 126.9000838470429,
                "lat": 37.55200750679765
              },
              "end": {
                "name": "태양빌딩",
                "lon": 126.8995,
                "lat": 37.55611666666667
              },
              "steps": [
                {
                  "streetName": "보행자도로",
                  "distance": 277,
                  "description": "보행자도로 을 따라 277m 이동",
                  "linestring": "126.90008,37.55201 126.8997,37.552284 126.89867,37.55307 126.89858,37.553146 126.89853,37.553234 126.8985,37.553337 126.89845,37.553394 126.89841,37.553425 126.89792,37.553776"
                },
                {
                  "streetName": "",
                  "distance": 75,
                  "description": "지하보도 진입 후 75m 이동 ",
                  "linestring": "126.89792,37.553776 126.898506,37.554264"
                },
                {
                  "streetName": "",
                  "distance": 35,
                  "description": "우회전 후 35m 이동 ",
                  "linestring": "126.898506,37.554264 126.89863,37.554173 126.89862,37.554356"
                },
                {
                  "streetName": "",
                  "distance": 15,
                  "description": "우회전 후 15m 이동 ",
                  "linestring": "126.89862,37.554356 126.898735,37.554455"
                },
                {
                  "streetName": "",
                  "distance": 188,
                  "description": "좌회전 후 188m 이동 ",
                  "linestring": "126.898735,37.554455 126.89869,37.554493 126.89875,37.554546 126.8983,37.554867 126.89814,37.554985 126.897354,37.555576 126.89732,37.555614 126.89732,37.555622"
                },
                {
                  "streetName": "보행자도로",
                  "distance": 9,
                  "description": "우회전 후 보행자도로 을 따라 9m 이동 ",
                  "linestring": "126.89732,37.555622 126.89731,37.555656 126.897316,37.555676 126.89734,37.555687"
                },
                {
                  "streetName": "보행자도로",
                  "distance": 30,
                  "description": "횡단보도 후 보행자도로 을 따라 30m 이동 ",
                  "linestring": "126.89889,37.55602 126.89922,37.556065"
                },
                {
                  "streetName": "망원로",
                  "distance": 26,
                  "description": "연세선치과의원 에서 직진 후 망원로 을 따라 26m 이동 ",
                  "linestring": "126.89922,37.556065 126.89923,37.556084 126.89949,37.556137"
                }
              ]
            },
            {
              "mode": "BUS",
              "routeColor": "53B332",
              "sectionTime": 502,
              "route": "마을:마포09",
              "distance": 2519,
              "start": {
                "name": "태양빌딩",
                "lon": 126.8995,
                "lat": 37.55611666666667
              },
              "passStopList": {
                "stationList": [
                  {
                    "index": 0,
                    "stationName": "태양빌딩",
                    "lon": "126.899500",
                    "lat": "37.556117",
                    "stationID": "757454"
                  },
                  {
                    "index": 1,
                    "stationName": "망원교회",
                    "lon": "126.900258",
                    "lat": "37.556275",
                    "stationID": "757461"
                  },
                  {
                    "index": 2,
                    "stationName": "성원아파트",
                    "lon": "126.901631",
                    "lat": "37.556558",
                    "stationID": "757481"
                  },
                  {
                    "index": 3,
                    "stationName": "동교초등학교",
                    "lon": "126.903075",
                    "lat": "37.556864",
                    "stationID": "757504"
                  },
                  {
                    "index": 4,
                    "stationName": "망원동사거리",
                    "lon": "126.904311",
                    "lat": "37.557119",
                    "stationID": "757520"
                  },
                  {
                    "index": 5,
                    "stationName": "망원시장",
                    "lon": "126.905989",
                    "lat": "37.557464",
                    "stationID": "757541"
                  },
                  {
                    "index": 6,
                    "stationName": "구)망원우체국사거리",
                    "lon": "126.907853",
                    "lat": "37.557858",
                    "stationID": "757561"
                  },
                  {
                    "index": 7,
                    "stationName": "망원전철역",
                    "lon": "126.909925",
                    "lat": "37.556094",
                    "stationID": "757446"
                  },
                  {
                    "index": 8,
                    "stationName": "성산초등학교",
                    "lon": "126.912361",
                    "lat": "37.554253",
                    "stationID": "757322"
                  },
                  {
                    "index": 9,
                    "stationName": "고니빌딩",
                    "lon": "126.914044",
                    "lat": "37.554544",
                    "stationID": "757339"
                  },
                  {
                    "index": 10,
                    "stationName": "서교동주민센터",
                    "lon": "126.915364",
                    "lat": "37.554772",
                    "stationID": "757354"
                  },
                  {
                    "index": 11,
                    "stationName": "우리은행서교동지점",
                    "lon": "126.917433",
                    "lat": "37.553233",
                    "stationID": "757255"
                  },
                  {
                    "index": 12,
                    "stationName": "서교동(중)",
                    "lon": "126.919483",
                    "lat": "37.553603",
                    "stationID": "757280"
                  },
                  {
                    "index": 13,
                    "stationName": "홍대입구역",
                    "lon": "126.923531",
                    "lat": "37.556544",
                    "stationID": "757473"
                  }
                ]
              },
              "end": {
                "name": "홍대입구역",
                "lon": 126.92353055555556,
                "lat": 37.55654444444444
              },
              "type": 3,
              "passShape": {
                "linestring": "126.899481,37.556150 126.900256,37.556311 126.901625,37.556594 126.901733,37.556617 126.903044,37.556889 126.904281,37.557147 126.904439,37.557181 126.904514,37.557197 126.905981,37.557500 126.907522,37.557817 126.907858,37.557894 126.908256,37.557983 126.909950,37.556125 126.911464,37.554464 126.911597,37.554286 126.911844,37.554186 126.912342,37.554286 126.912344,37.554286 126.914042,37.554581 126.915347,37.554806 126.915350,37.554806 126.915719,37.554858 126.916078,37.554419 126.916872,37.553764 126.917475,37.553247 126.918081,37.552731 126.918222,37.552708 126.918333,37.552722 126.919511,37.553597 126.921542,37.555106 126.921675,37.555206 126.921817,37.555311 126.923508,37.556578"
              }
            },
            {
              "mode": "TRANSFER",
              "sectionTime": 0,
              "distance": 0,
              "start": {
                "name": "홍대입구역",
                "lon": 126.92353055555556,
                "lat": 37.55654444444444
              },
              "end": {
                "name": "홍대입구역",
                "lon": 126.92353055555556,
                "lat": 37.55654444444444
              },
              "passShape": {
                "linestring": "126.923531,37.556544 126.923531,37.556544"
              }
            },
            {
              "mode": "BUS",
              "routeColor": "53B332",
              "sectionTime": 508,
              "route": "지선:7016",
              "distance": 2987,
              "start": {
                "name": "홍대입구역",
                "lon": 126.92353055555556,
                "lat": 37.55654444444444
              },
              "passStopList": {
                "stationList": [
                  {
                    "index": 0,
                    "stationName": "홍대입구역",
                    "lon": "126.923531",
                    "lat": "37.556544",
                    "stationID": "757473"
                  },
                  {
                    "index": 1,
                    "stationName": "동교동삼거리(중)",
                    "lon": "126.928264",
                    "lat": "37.558164",
                    "stationID": "757580"
                  },
                  {
                    "index": 2,
                    "stationName": "신촌역",
                    "lon": "126.934767",
                    "lat": "37.555711",
                    "stationID": "757407"
                  },
                  {
                    "index": 3,
                    "stationName": "신촌로터리",
                    "lon": "126.936925",
                    "lat": "37.553867",
                    "stationID": "757293"
                  },
                  {
                    "index": 4,
                    "stationName": "서강대학교",
                    "lon": "126.937367",
                    "lat": "37.551822",
                    "stationID": "757183"
                  },
                  {
                    "index": 5,
                    "stationName": "광성중고등학교",
                    "lon": "126.938708",
                    "lat": "37.549314",
                    "stationID": "757070"
                  },
                  {
                    "index": 6,
                    "stationName": "대흥역",
                    "lon": "126.941192",
                    "lat": "37.548094",
                    "stationID": "756986"
                  },
                  {
                    "index": 7,
                    "stationName": "용강초등학교",
                    "lon": "126.943542",
                    "lat": "37.547058",
                    "stationID": "756926"
                  },
                  {
                    "index": 8,
                    "stationName": "동도중학교.서울디자인고등학교",
                    "lon": "126.946833",
                    "lat": "37.545614",
                    "stationID": "756848"
                  },
                  {
                    "index": 9,
                    "stationName": "공덕역1번출구",
                    "lon": "126.949372",
                    "lat": "37.544508",
                    "stationID": "756781"
                  }
                ]
              },
              "end": {
                "name": "공덕역1번출구",
                "lon": 126.94937222222222,
                "lat": 37.54450833333333
              },
              "type": 12,
              "passShape": {
                "linestring": "126.923508,37.556578 126.926050,37.558478 126.926281,37.558589 126.926428,37.558625 126.926564,37.558644 126.926789,37.558647 126.926994,37.558611 126.928261,37.558142 126.931608,37.556903 126.931744,37.556856 126.934833,37.555758 126.936192,37.555275 126.936483,37.555183 126.936708,37.555136 126.936794,37.554975 126.936850,37.554544 126.936969,37.553864 126.937194,37.552572 126.937389,37.551878 126.937411,37.551817 126.937564,37.551381 126.937794,37.550858 126.938333,37.549889 126.938533,37.549575 126.938706,37.549369 126.938731,37.549344 126.938850,37.549233 126.939011,37.549128 126.939256,37.549003 126.941208,37.548128 126.941769,37.547875 126.941928,37.547806 126.943556,37.547092 126.946075,37.545989 126.946833,37.545650 126.947872,37.545192 126.949397,37.544539"
              }
            },
            {
              "mode": "WALK",
              "sectionTime": 105,
              "distance": 100,
              "start": {
                "name": "공덕역1번출구",
                "lon": 126.94937222222222,
                "lat": 37.54450833333333
              },
              "end": {
                "name": "도착지",
                "lon": 126.9484912479837,
                "lat": 37.54417282802694
              },
              "steps": [
                {
                  "streetName": "백범로",
                  "distance": 18,
                  "description": "백범로 을 따라 18m 이동",
                  "linestring": "126.94935,37.54447 126.94934,37.544476 126.949165,37.54455"
                },
                {
                  "streetName": "",
                  "distance": 44,
                  "description": "청해수산 에서 좌회전 후 44m 이동 ",
                  "linestring": "126.949165,37.54455 126.949135,37.544502 126.94892,37.544224 126.94891,37.54421"
                },
                {
                  "streetName": "",
                  "distance": 6,
                  "description": "횡단보도 후 6m 이동 ",
                  "linestring": "126.94891,37.54421 126.94888,37.54416"
                },
                {
                  "streetName": "보행자도로",
                  "distance": 32,
                  "description": "우회전 후 보행자도로 을 따라 32m 이동 ",
                  "linestring": "126.94888,37.54416 126.94857,37.544296"
                }
              ]
            }
          ],
          "totalWalkTime": 781,
          "transferCount": 1,
          "totalDistance": 6054,
          "pathType": 2,
          "totalWalkDistance": 896
        },
        {
          "fare": {
            "regular": {
              "totalFare": 2800,
              "currency": {
                "symbol": "￦",
                "currency": "원",
                "currencyCode": "KRW"
              }
            }
          },
          "totalTime": 1692,
          "legs": [
            {
              "mode": "WALK",
              "sectionTime": 676,
              "distance": 796,
              "start": {
                "name": "출발지",
                "lon": 126.9000838470429,
                "lat": 37.55200750679765
              },
              "end": {
                "name": "태양빌딩",
                "lon": 126.8995,
                "lat": 37.55611666666667
              },
              "steps": [
                {
                  "streetName": "보행자도로",
                  "distance": 277,
                  "description": "보행자도로 을 따라 277m 이동",
                  "linestring": "126.90008,37.55201 126.8997,37.552284 126.89867,37.55307 126.89858,37.553146 126.89853,37.553234 126.8985,37.553337 126.89845,37.553394 126.89841,37.553425 126.89792,37.553776"
                },
                {
                  "streetName": "",
                  "distance": 75,
                  "description": "지하보도 진입 후 75m 이동 ",
                  "linestring": "126.89792,37.553776 126.898506,37.554264"
                },
                {
                  "streetName": "",
                  "distance": 35,
                  "description": "우회전 후 35m 이동 ",
                  "linestring": "126.898506,37.554264 126.89863,37.554173 126.89862,37.554356"
                },
                {
                  "streetName": "",
                  "distance": 15,
                  "description": "우회전 후 15m 이동 ",
                  "linestring": "126.89862,37.554356 126.898735,37.554455"
                },
                {
                  "streetName": "",
                  "distance": 188,
                  "description": "좌회전 후 188m 이동 ",
                  "linestring": "126.898735,37.554455 126.89869,37.554493 126.89875,37.554546 126.8983,37.554867 126.89814,37.554985 126.897354,37.555576 126.89732,37.555614 126.89732,37.555622"
                },
                {
                  "streetName": "보행자도로",
                  "distance": 9,
                  "description": "우회전 후 보행자도로 을 따라 9m 이동 ",
                  "linestring": "126.89732,37.555622 126.89731,37.555656 126.897316,37.555676 126.89734,37.555687"
                },
                {
                  "streetName": "보행자도로",
                  "distance": 30,
                  "description": "횡단보도 후 보행자도로 을 따라 30m 이동 ",
                  "linestring": "126.89889,37.55602 126.89922,37.556065"
                },
                {
                  "streetName": "망원로",
                  "distance": 26,
                  "description": "연세선치과의원 에서 직진 후 망원로 을 따라 26m 이동 ",
                  "linestring": "126.89922,37.556065 126.89923,37.556084 126.89949,37.556137"
                }
              ]
            },
            {
              "mode": "BUS",
              "routeColor": "53B332",
              "sectionTime": 576,
              "route": "마을:마포09",
              "distance": 2974,
              "start": {
                "name": "태양빌딩",
                "lon": 126.8995,
                "lat": 37.55611666666667
              },
              "passStopList": {
                "stationList": [
                  {
                    "index": 0,
                    "stationName": "태양빌딩",
                    "lon": "126.899500",
                    "lat": "37.556117",
                    "stationID": "757454"
                  },
                  {
                    "index": 1,
                    "stationName": "망원교회",
                    "lon": "126.900258",
                    "lat": "37.556275",
                    "stationID": "757461"
                  },
                  {
                    "index": 2,
                    "stationName": "성원아파트",
                    "lon": "126.901631",
                    "lat": "37.556558",
                    "stationID": "757481"
                  },
                  {
                    "index": 3,
                    "stationName": "동교초등학교",
                    "lon": "126.903075",
                    "lat": "37.556864",
                    "stationID": "757504"
                  },
                  {
                    "index": 4,
                    "stationName": "망원동사거리",
                    "lon": "126.904311",
                    "lat": "37.557119",
                    "stationID": "757520"
                  },
                  {
                    "index": 5,
                    "stationName": "망원시장",
                    "lon": "126.905989",
                    "lat": "37.557464",
                    "stationID": "757541"
                  },
                  {
                    "index": 6,
                    "stationName": "구)망원우체국사거리",
                    "lon": "126.907853",
                    "lat": "37.557858",
                    "stationID": "757561"
                  },
                  {
                    "index": 7,
                    "stationName": "망원전철역",
                    "lon": "126.909925",
                    "lat": "37.556094",
                    "stationID": "757446"
                  },
                  {
                    "index": 8,
                    "stationName": "성산초등학교",
                    "lon": "126.912361",
                    "lat": "37.554253",
                    "stationID": "757322"
                  },
                  {
                    "index": 9,
                    "stationName": "고니빌딩",
                    "lon": "126.914044",
                    "lat": "37.554544",
                    "stationID": "757339"
                  },
                  {
                    "index": 10,
                    "stationName": "서교동주민센터",
                    "lon": "126.915364",
                    "lat": "37.554772",
                    "stationID": "757354"
                  },
                  {
                    "index": 11,
                    "stationName": "우리은행서교동지점",
                    "lon": "126.917433",
                    "lat": "37.553233",
                    "stationID": "757255"
                  },
                  {
                    "index": 12,
                    "stationName": "서교동(중)",
                    "lon": "126.919483",
                    "lat": "37.553603",
                    "stationID": "757280"
                  },
                  {
                    "index": 13,
                    "stationName": "홍대입구역",
                    "lon": "126.923531",
                    "lat": "37.556544",
                    "stationID": "757473"
                  },
                  {
                    "index": 14,
                    "stationName": "동교동삼거리(중)",
                    "lon": "126.928264",
                    "lat": "37.558164",
                    "stationID": "757580"
                  }
                ]
              },
              "end": {
                "name": "동교동삼거리(중)",
                "lon": 126.92826388888889,
                "lat": 37.55816388888889
              },
              "type": 3,
              "passShape": {
                "linestring": "126.899481,37.556150 126.900256,37.556311 126.901625,37.556594 126.901733,37.556617 126.903044,37.556889 126.904281,37.557147 126.904439,37.557181 126.904514,37.557197 126.905981,37.557500 126.907522,37.557817 126.907858,37.557894 126.908256,37.557983 126.909950,37.556125 126.911464,37.554464 126.911597,37.554286 126.911844,37.554186 126.912342,37.554286 126.912344,37.554286 126.914042,37.554581 126.915347,37.554806 126.915350,37.554806 126.915719,37.554858 126.916078,37.554419 126.916872,37.553764 126.917475,37.553247 126.918081,37.552731 126.918222,37.552708 126.918333,37.552722 126.919511,37.553597 126.921542,37.555106 126.921675,37.555206 126.921817,37.555311 126.923508,37.556578 126.926050,37.558478 126.926281,37.558589 126.926428,37.558625 126.926564,37.558644 126.926789,37.558647 126.926994,37.558611 126.928261,37.558142"
              }
            },
            {
              "mode": "TRANSFER",
              "sectionTime": 0,
              "distance": 0,
              "start": {
                "name": "동교동삼거리(중)",
                "lon": 126.92826388888889,
                "lat": 37.55816388888889
              },
              "end": {
                "name": "동교동삼거리(중)",
                "lon": 126.92826388888889,
                "lat": 37.55816388888889
              },
              "passShape": {
                "linestring": "126.928264,37.558164 126.928264,37.558164"
              }
            },
            {
              "mode": "BUS",
              "routeColor": "FF3300",
              "sectionTime": 335,
              "route": "직행좌석:3400",
              "distance": 2479,
              "start": {
                "name": "동교동삼거리(중)",
                "lon": 126.92826388888889,
                "lat": 37.55816388888889
              },
              "passStopList": {
                "stationList": [
                  {
                    "index": 0,
                    "stationName": "동교동삼거리(중)",
                    "lon": "126.928264",
                    "lat": "37.558164",
                    "stationID": "757580"
                  },
                  {
                    "index": 1,
                    "stationName": "신촌역",
                    "lon": "126.934767",
                    "lat": "37.555711",
                    "stationID": "757407"
                  },
                  {
                    "index": 2,
                    "stationName": "대흥역",
                    "lon": "126.941192",
                    "lat": "37.548094",
                    "stationID": "756986"
                  },
                  {
                    "index": 3,
                    "stationName": "공덕역1번출구",
                    "lon": "126.949372",
                    "lat": "37.544508",
                    "stationID": "756781"
                  }
                ]
              },
              "end": {
                "name": "공덕역1번출구",
                "lon": 126.94937222222222,
                "lat": 37.54450833333333
              },
              "type": 4,
              "passShape": {
                "linestring": "126.928261,37.558142 126.931608,37.556903 126.931744,37.556856 126.934833,37.555758 126.936192,37.555275 126.936483,37.555183 126.936708,37.555136 126.936794,37.554975 126.936850,37.554544 126.937194,37.552572 126.937389,37.551878 126.937564,37.551381 126.937794,37.550858 126.938333,37.549889 126.938533,37.549575 126.938706,37.549369 126.938850,37.549233 126.939011,37.549128 126.939256,37.549003 126.941208,37.548128 126.941769,37.547875 126.941928,37.547806 126.946075,37.545989 126.947872,37.545192 126.949397,37.544539"
              }
            },
            {
              "mode": "WALK",
              "sectionTime": 105,
              "distance": 100,
              "start": {
                "name": "공덕역1번출구",
                "lon": 126.94937222222222,
                "lat": 37.54450833333333
              },
              "end": {
                "name": "도착지",
                "lon": 126.9484912479837,
                "lat": 37.54417282802694
              },
              "steps": [
                {
                  "streetName": "백범로",
                  "distance": 18,
                  "description": "백범로 을 따라 18m 이동",
                  "linestring": "126.94935,37.54447 126.94934,37.544476 126.949165,37.54455"
                },
                {
                  "streetName": "",
                  "distance": 44,
                  "description": "청해수산 에서 좌회전 후 44m 이동 ",
                  "linestring": "126.949165,37.54455 126.949135,37.544502 126.94892,37.544224 126.94891,37.54421"
                },
                {
                  "streetName": "",
                  "distance": 6,
                  "description": "횡단보도 후 6m 이동 ",
                  "linestring": "126.94891,37.54421 126.94888,37.54416"
                },
                {
                  "streetName": "보행자도로",
                  "distance": 32,
                  "description": "우회전 후 보행자도로 을 따라 32m 이동 ",
                  "linestring": "126.94888,37.54416 126.94857,37.544296"
                }
              ]
            }
          ],
          "totalWalkTime": 781,
          "transferCount": 1,
          "totalDistance": 6001,
          "pathType": 2,
          "totalWalkDistance": 896
        },
        {
          "fare": {
            "regular": {
              "totalFare": 2800,
              "currency": {
                "symbol": "￦",
                "currency": "원",
                "currencyCode": "KRW"
              }
            }
          },
          "totalTime": 1835,
          "legs": [
            {
              "mode": "WALK",
              "sectionTime": 676,
              "distance": 796,
              "start": {
                "name": "출발지",
                "lon": 126.9000838470429,
                "lat": 37.55200750679765
              },
              "end": {
                "name": "태양빌딩",
                "lon": 126.8995,
                "lat": 37.55611666666667
              },
              "steps": [
                {
                  "streetName": "보행자도로",
                  "distance": 277,
                  "description": "보행자도로 을 따라 277m 이동",
                  "linestring": "126.90008,37.55201 126.8997,37.552284 126.89867,37.55307 126.89858,37.553146 126.89853,37.553234 126.8985,37.553337 126.89845,37.553394 126.89841,37.553425 126.89792,37.553776"
                },
                {
                  "streetName": "",
                  "distance": 75,
                  "description": "지하보도 진입 후 75m 이동 ",
                  "linestring": "126.89792,37.553776 126.898506,37.554264"
                },
                {
                  "streetName": "",
                  "distance": 35,
                  "description": "우회전 후 35m 이동 ",
                  "linestring": "126.898506,37.554264 126.89863,37.554173 126.89862,37.554356"
                },
                {
                  "streetName": "",
                  "distance": 15,
                  "description": "우회전 후 15m 이동 ",
                  "linestring": "126.89862,37.554356 126.898735,37.554455"
                },
                {
                  "streetName": "",
                  "distance": 188,
                  "description": "좌회전 후 188m 이동 ",
                  "linestring": "126.898735,37.554455 126.89869,37.554493 126.89875,37.554546 126.8983,37.554867 126.89814,37.554985 126.897354,37.555576 126.89732,37.555614 126.89732,37.555622"
                },
                {
                  "streetName": "보행자도로",
                  "distance": 9,
                  "description": "우회전 후 보행자도로 을 따라 9m 이동 ",
                  "linestring": "126.89732,37.555622 126.89731,37.555656 126.897316,37.555676 126.89734,37.555687"
                },
                {
                  "streetName": "보행자도로",
                  "distance": 30,
                  "description": "횡단보도 후 보행자도로 을 따라 30m 이동 ",
                  "linestring": "126.89889,37.55602 126.89922,37.556065"
                },
                {
                  "streetName": "망원로",
                  "distance": 26,
                  "description": "연세선치과의원 에서 직진 후 망원로 을 따라 26m 이동 ",
                  "linestring": "126.89922,37.556065 126.89923,37.556084 126.89949,37.556137"
                }
              ]
            },
            {
              "mode": "BUS",
              "routeColor": "53B332",
              "sectionTime": 699,
              "route": "마을:마포09",
              "distance": 3703,
              "start": {
                "name": "태양빌딩",
                "lon": 126.8995,
                "lat": 37.55611666666667
              },
              "passStopList": {
                "stationList": [
                  {
                    "index": 0,
                    "stationName": "태양빌딩",
                    "lon": "126.899500",
                    "lat": "37.556117",
                    "stationID": "757454"
                  },
                  {
                    "index": 1,
                    "stationName": "망원교회",
                    "lon": "126.900258",
                    "lat": "37.556275",
                    "stationID": "757461"
                  },
                  {
                    "index": 2,
                    "stationName": "성원아파트",
                    "lon": "126.901631",
                    "lat": "37.556558",
                    "stationID": "757481"
                  },
                  {
                    "index": 3,
                    "stationName": "동교초등학교",
                    "lon": "126.903075",
                    "lat": "37.556864",
                    "stationID": "757504"
                  },
                  {
                    "index": 4,
                    "stationName": "망원동사거리",
                    "lon": "126.904311",
                    "lat": "37.557119",
                    "stationID": "757520"
                  },
                  {
                    "index": 5,
                    "stationName": "망원시장",
                    "lon": "126.905989",
                    "lat": "37.557464",
                    "stationID": "757541"
                  },
                  {
                    "index": 6,
                    "stationName": "구)망원우체국사거리",
                    "lon": "126.907853",
                    "lat": "37.557858",
                    "stationID": "757561"
                  },
                  {
                    "index": 7,
                    "stationName": "망원전철역",
                    "lon": "126.909925",
                    "lat": "37.556094",
                    "stationID": "757446"
                  },
                  {
                    "index": 8,
                    "stationName": "성산초등학교",
                    "lon": "126.912361",
                    "lat": "37.554253",
                    "stationID": "757322"
                  },
                  {
                    "index": 9,
                    "stationName": "고니빌딩",
                    "lon": "126.914044",
                    "lat": "37.554544",
                    "stationID": "757339"
                  },
                  {
                    "index": 10,
                    "stationName": "서교동주민센터",
                    "lon": "126.915364",
                    "lat": "37.554772",
                    "stationID": "757354"
                  },
                  {
                    "index": 11,
                    "stationName": "우리은행서교동지점",
                    "lon": "126.917433",
                    "lat": "37.553233",
                    "stationID": "757255"
                  },
                  {
                    "index": 12,
                    "stationName": "서교동(중)",
                    "lon": "126.919483",
                    "lat": "37.553603",
                    "stationID": "757280"
                  },
                  {
                    "index": 13,
                    "stationName": "홍대입구역",
                    "lon": "126.923531",
                    "lat": "37.556544",
                    "stationID": "757473"
                  },
                  {
                    "index": 14,
                    "stationName": "동교동삼거리(중)",
                    "lon": "126.928264",
                    "lat": "37.558164",
                    "stationID": "757580"
                  },
                  {
                    "index": 15,
                    "stationName": "신촌농협.하나로마트",
                    "lon": "126.933244",
                    "lat": "37.556247",
                    "stationID": "757450"
                  },
                  {
                    "index": 16,
                    "stationName": "신촌역",
                    "lon": "126.935728",
                    "lat": "37.555372",
                    "stationID": "757386"
                  }
                ]
              },
              "end": {
                "name": "신촌역",
                "lon": 126.93572777777777,
                "lat": 37.555372222222225
              },
              "type": 3,
              "passShape": {
                "linestring": "126.899481,37.556150 126.900256,37.556311 126.901625,37.556594 126.901733,37.556617 126.903044,37.556889 126.904281,37.557147 126.904439,37.557181 126.904514,37.557197 126.905981,37.557500 126.907522,37.557817 126.907858,37.557894 126.908256,37.557983 126.909950,37.556125 126.911464,37.554464 126.911597,37.554286 126.911844,37.554186 126.912342,37.554286 126.912344,37.554286 126.914042,37.554581 126.915347,37.554806 126.915350,37.554806 126.915719,37.554858 126.916078,37.554419 126.916872,37.553764 126.917475,37.553247 126.918081,37.552731 126.918222,37.552708 126.918333,37.552722 126.919511,37.553597 126.921542,37.555106 126.921675,37.555206 126.921817,37.555311 126.923508,37.556578 126.926050,37.558478 126.926281,37.558589 126.926428,37.558625 126.926564,37.558644 126.926789,37.558647 126.926994,37.558611 126.928261,37.558142 126.931608,37.556903 126.931744,37.556856 126.933256,37.556319 126.935717,37.555444"
              }
            },
            {
              "mode": "TRANSFER",
              "sectionTime": 8,
              "distance": 12,
              "start": {
                "name": "신촌역",
                "lon": 126.93572777777777,
                "lat": 37.555372222222225
              },
              "end": {
                "name": "신촌오거리.현대백화점",
                "lon": 126.9356138888889,
                "lat": 37.55544166666667
              },
              "passShape": {
                "linestring": "126.935728,37.555372 126.935614,37.555442"
              }
            },
            {
              "mode": "BUS",
              "routeColor": "FF3300",
              "sectionTime": 347,
              "route": "광역:M7731",
              "distance": 2346,
              "start": {
                "name": "신촌오거리.현대백화점",
                "lon": 126.9356138888889,
                "lat": 37.55544166666667
              },
              "passStopList": {
                "stationList": [
                  {
                    "index": 0,
                    "stationName": "신촌오거리.현대백화점",
                    "lon": "126.935614",
                    "lat": "37.555442",
                    "stationID": "757397"
                  },
                  {
                    "index": 1,
                    "stationName": "이화여대입구",
                    "lon": "126.945750",
                    "lat": "37.555994",
                    "stationID": "757425"
                  },
                  {
                    "index": 2,
                    "stationName": "서강대학교후문",
                    "lon": "126.943950",
                    "lat": "37.550592",
                    "stationID": "757129"
                  },
                  {
                    "index": 3,
                    "stationName": "공덕역1번출구",
                    "lon": "126.949372",
                    "lat": "37.544508",
                    "stationID": "756781"
                  }
                ]
              },
              "end": {
                "name": "공덕역1번출구",
                "lon": 126.94937222222222,
                "lat": 37.54450833333333
              },
              "type": 14,
              "passShape": {
                "linestring": "126.935636,37.555475 126.936192,37.555275 126.936483,37.555183 126.936708,37.555136 126.936958,37.555119 126.937261,37.555139 126.937453,37.555172 126.937694,37.555239 126.940531,37.556183 126.941114,37.556358 126.941661,37.556461 126.942175,37.556506 126.942889,37.556544 126.945789,37.556706 126.945794,37.555983 126.945800,37.555397 126.945853,37.553569 126.945828,37.553008 126.945814,37.552906 126.945781,37.552814 126.945700,37.552683 126.945481,37.552456 126.944911,37.552064 126.944653,37.551856 126.944439,37.551631 126.944261,37.551383 126.944161,37.551139 126.943992,37.550578 126.943975,37.550517 126.943806,37.550197 126.943575,37.549886 126.941875,37.547994 126.941939,37.547858 126.941928,37.547806 126.946075,37.545989 126.947872,37.545192 126.949397,37.544539"
              }
            },
            {
              "mode": "WALK",
              "sectionTime": 105,
              "distance": 100,
              "start": {
                "name": "공덕역1번출구",
                "lon": 126.94937222222222,
                "lat": 37.54450833333333
              },
              "end": {
                "name": "도착지",
                "lon": 126.9484912479837,
                "lat": 37.54417282802694
              },
              "steps": [
                {
                  "streetName": "백범로",
                  "distance": 18,
                  "description": "백범로 을 따라 18m 이동",
                  "linestring": "126.94935,37.54447 126.94934,37.544476 126.949165,37.54455"
                },
                {
                  "streetName": "",
                  "distance": 44,
                  "description": "청해수산 에서 좌회전 후 44m 이동 ",
                  "linestring": "126.949165,37.54455 126.949135,37.544502 126.94892,37.544224 126.94891,37.54421"
                },
                {
                  "streetName": "",
                  "distance": 6,
                  "description": "횡단보도 후 6m 이동 ",
                  "linestring": "126.94891,37.54421 126.94888,37.54416"
                },
                {
                  "streetName": "보행자도로",
                  "distance": 32,
                  "description": "우회전 후 보행자도로 을 따라 32m 이동 ",
                  "linestring": "126.94888,37.54416 126.94857,37.544296"
                }
              ]
            }
          ],
          "totalWalkTime": 789,
          "transferCount": 1,
          "totalDistance": 6609,
          "pathType": 2,
          "totalWalkDistance": 908
        },
        {
          "fare": {
            "regular": {
              "totalFare": 1200,
              "currency": {
                "symbol": "￦",
                "currency": "원",
                "currencyCode": "KRW"
              }
            }
          },
          "totalTime": 1790,
          "legs": [
            {
              "mode": "WALK",
              "sectionTime": 676,
              "distance": 796,
              "start": {
                "name": "출발지",
                "lon": 126.9000838470429,
                "lat": 37.55200750679765
              },
              "end": {
                "name": "태양빌딩",
                "lon": 126.8995,
                "lat": 37.55611666666667
              },
              "steps": [
                {
                  "streetName": "보행자도로",
                  "distance": 277,
                  "description": "보행자도로 을 따라 277m 이동",
                  "linestring": "126.90008,37.55201 126.8997,37.552284 126.89867,37.55307 126.89858,37.553146 126.89853,37.553234 126.8985,37.553337 126.89845,37.553394 126.89841,37.553425 126.89792,37.553776"
                },
                {
                  "streetName": "",
                  "distance": 75,
                  "description": "지하보도 진입 후 75m 이동 ",
                  "linestring": "126.89792,37.553776 126.898506,37.554264"
                },
                {
                  "streetName": "",
                  "distance": 35,
                  "description": "우회전 후 35m 이동 ",
                  "linestring": "126.898506,37.554264 126.89863,37.554173 126.89862,37.554356"
                },
                {
                  "streetName": "",
                  "distance": 15,
                  "description": "우회전 후 15m 이동 ",
                  "linestring": "126.89862,37.554356 126.898735,37.554455"
                },
                {
                  "streetName": "",
                  "distance": 188,
                  "description": "좌회전 후 188m 이동 ",
                  "linestring": "126.898735,37.554455 126.89869,37.554493 126.89875,37.554546 126.8983,37.554867 126.89814,37.554985 126.897354,37.555576 126.89732,37.555614 126.89732,37.555622"
                },
                {
                  "streetName": "보행자도로",
                  "distance": 9,
                  "description": "우회전 후 보행자도로 을 따라 9m 이동 ",
                  "linestring": "126.89732,37.555622 126.89731,37.555656 126.897316,37.555676 126.89734,37.555687"
                },
                {
                  "streetName": "보행자도로",
                  "distance": 30,
                  "description": "횡단보도 후 보행자도로 을 따라 30m 이동 ",
                  "linestring": "126.89889,37.55602 126.89922,37.556065"
                },
                {
                  "streetName": "망원로",
                  "distance": 26,
                  "description": "연세선치과의원 에서 직진 후 망원로 을 따라 26m 이동 ",
                  "linestring": "126.89922,37.556065 126.89923,37.556084 126.89949,37.556137"
                }
              ]
            },
            {
              "mode": "BUS",
              "routeColor": "53B332",
              "sectionTime": 576,
              "route": "마을:마포09",
              "distance": 2974,
              "start": {
                "name": "태양빌딩",
                "lon": 126.8995,
                "lat": 37.55611666666667
              },
              "passStopList": {
                "stationList": [
                  {
                    "index": 0,
                    "stationName": "태양빌딩",
                    "lon": "126.899500",
                    "lat": "37.556117",
                    "stationID": "757454"
                  },
                  {
                    "index": 1,
                    "stationName": "망원교회",
                    "lon": "126.900258",
                    "lat": "37.556275",
                    "stationID": "757461"
                  },
                  {
                    "index": 2,
                    "stationName": "성원아파트",
                    "lon": "126.901631",
                    "lat": "37.556558",
                    "stationID": "757481"
                  },
                  {
                    "index": 3,
                    "stationName": "동교초등학교",
                    "lon": "126.903075",
                    "lat": "37.556864",
                    "stationID": "757504"
                  },
                  {
                    "index": 4,
                    "stationName": "망원동사거리",
                    "lon": "126.904311",
                    "lat": "37.557119",
                    "stationID": "757520"
                  },
                  {
                    "index": 5,
                    "stationName": "망원시장",
                    "lon": "126.905989",
                    "lat": "37.557464",
                    "stationID": "757541"
                  },
                  {
                    "index": 6,
                    "stationName": "구)망원우체국사거리",
                    "lon": "126.907853",
                    "lat": "37.557858",
                    "stationID": "757561"
                  },
                  {
                    "index": 7,
                    "stationName": "망원전철역",
                    "lon": "126.909925",
                    "lat": "37.556094",
                    "stationID": "757446"
                  },
                  {
                    "index": 8,
                    "stationName": "성산초등학교",
                    "lon": "126.912361",
                    "lat": "37.554253",
                    "stationID": "757322"
                  },
                  {
                    "index": 9,
                    "stationName": "고니빌딩",
                    "lon": "126.914044",
                    "lat": "37.554544",
                    "stationID": "757339"
                  },
                  {
                    "index": 10,
                    "stationName": "서교동주민센터",
                    "lon": "126.915364",
                    "lat": "37.554772",
                    "stationID": "757354"
                  },
                  {
                    "index": 11,
                    "stationName": "우리은행서교동지점",
                    "lon": "126.917433",
                    "lat": "37.553233",
                    "stationID": "757255"
                  },
                  {
                    "index": 12,
                    "stationName": "서교동(중)",
                    "lon": "126.919483",
                    "lat": "37.553603",
                    "stationID": "757280"
                  },
                  {
                    "index": 13,
                    "stationName": "홍대입구역",
                    "lon": "126.923531",
                    "lat": "37.556544",
                    "stationID": "757473"
                  },
                  {
                    "index": 14,
                    "stationName": "동교동삼거리(중)",
                    "lon": "126.928264",
                    "lat": "37.558164",
                    "stationID": "757580"
                  }
                ]
              },
              "end": {
                "name": "동교동삼거리(중)",
                "lon": 126.92826388888889,
                "lat": 37.55816388888889
              },
              "type": 3,
              "passShape": {
                "linestring": "126.899481,37.556150 126.900256,37.556311 126.901625,37.556594 126.901733,37.556617 126.903044,37.556889 126.904281,37.557147 126.904439,37.557181 126.904514,37.557197 126.905981,37.557500 126.907522,37.557817 126.907858,37.557894 126.908256,37.557983 126.909950,37.556125 126.911464,37.554464 126.911597,37.554286 126.911844,37.554186 126.912342,37.554286 126.912344,37.554286 126.914042,37.554581 126.915347,37.554806 126.915350,37.554806 126.915719,37.554858 126.916078,37.554419 126.916872,37.553764 126.917475,37.553247 126.918081,37.552731 126.918222,37.552708 126.918333,37.552722 126.919511,37.553597 126.921542,37.555106 126.921675,37.555206 126.921817,37.555311 126.923508,37.556578 126.926050,37.558478 126.926281,37.558589 126.926428,37.558625 126.926564,37.558644 126.926789,37.558647 126.926994,37.558611 126.928261,37.558142"
              }
            },
            {
              "mode": "TRANSFER",
              "sectionTime": 0,
              "distance": 0,
              "start": {
                "name": "동교동삼거리(중)",
                "lon": 126.92826388888889,
                "lat": 37.55816388888889
              },
              "end": {
                "name": "동교동삼거리(중)",
                "lon": 126.92826388888889,
                "lat": 37.55816388888889
              },
              "passShape": {
                "linestring": "126.928264,37.558164 126.928264,37.558164"
              }
            },
            {
              "mode": "BUS",
              "routeColor": "0068B7",
              "sectionTime": 433,
              "route": "간선:110B국민대",
              "distance": 2531,
              "start": {
                "name": "동교동삼거리(중)",
                "lon": 126.92826388888889,
                "lat": 37.55816388888889
              },
              "passStopList": {
                "stationList": [
                  {
                    "index": 0,
                    "stationName": "동교동삼거리(중)",
                    "lon": "126.928264",
                    "lat": "37.558164",
                    "stationID": "757580"
                  },
                  {
                    "index": 1,
                    "stationName": "신촌역",
                    "lon": "126.934767",
                    "lat": "37.555711",
                    "stationID": "757407"
                  },
                  {
                    "index": 2,
                    "stationName": "신촌로터리",
                    "lon": "126.936925",
                    "lat": "37.553867",
                    "stationID": "757293"
                  },
                  {
                    "index": 3,
                    "stationName": "서강대학교",
                    "lon": "126.937367",
                    "lat": "37.551822",
                    "stationID": "757183"
                  },
                  {
                    "index": 4,
                    "stationName": "광성중고등학교",
                    "lon": "126.938708",
                    "lat": "37.549314",
                    "stationID": "757070"
                  },
                  {
                    "index": 5,
                    "stationName": "대흥역",
                    "lon": "126.941192",
                    "lat": "37.548094",
                    "stationID": "756986"
                  },
                  {
                    "index": 6,
                    "stationName": "용강초등학교",
                    "lon": "126.943542",
                    "lat": "37.547058",
                    "stationID": "756926"
                  },
                  {
                    "index": 7,
                    "stationName": "동도중학교.서울디자인고등학교",
                    "lon": "126.946833",
                    "lat": "37.545614",
                    "stationID": "756848"
                  },
                  {
                    "index": 8,
                    "stationName": "공덕역1번출구",
                    "lon": "126.949372",
                    "lat": "37.544508",
                    "stationID": "756781"
                  }
                ]
              },
              "end": {
                "name": "공덕역1번출구",
                "lon": 126.94937222222222,
                "lat": 37.54450833333333
              },
              "type": 11,
              "passShape": {
                "linestring": "126.928261,37.558142 126.931608,37.556903 126.931744,37.556856 126.934833,37.555758 126.936192,37.555275 126.936483,37.555183 126.936708,37.555136 126.936794,37.554975 126.936850,37.554544 126.936969,37.553864 126.937194,37.552572 126.937389,37.551878 126.937411,37.551817 126.937564,37.551381 126.937794,37.550858 126.938333,37.549889 126.938533,37.549575 126.938706,37.549369 126.938731,37.549344 126.938850,37.549233 126.939011,37.549128 126.939256,37.549003 126.941208,37.548128 126.941769,37.547875 126.941928,37.547806 126.943556,37.547092 126.946075,37.545989 126.946833,37.545650 126.947872,37.545192 126.949397,37.544539"
              }
            },
            {
              "mode": "WALK",
              "sectionTime": 105,
              "distance": 100,
              "start": {
                "name": "공덕역1번출구",
                "lon": 126.94937222222222,
                "lat": 37.54450833333333
              },
              "end": {
                "name": "도착지",
                "lon": 126.9484912479837,
                "lat": 37.54417282802694
              },
              "steps": [
                {
                  "streetName": "백범로",
                  "distance": 18,
                  "description": "백범로 을 따라 18m 이동",
                  "linestring": "126.94935,37.54447 126.94934,37.544476 126.949165,37.54455"
                },
                {
                  "streetName": "",
                  "distance": 44,
                  "description": "청해수산 에서 좌회전 후 44m 이동 ",
                  "linestring": "126.949165,37.54455 126.949135,37.544502 126.94892,37.544224 126.94891,37.54421"
                },
                {
                  "streetName": "",
                  "distance": 6,
                  "description": "횡단보도 후 6m 이동 ",
                  "linestring": "126.94891,37.54421 126.94888,37.54416"
                },
                {
                  "streetName": "보행자도로",
                  "distance": 32,
                  "description": "우회전 후 보행자도로 을 따라 32m 이동 ",
                  "linestring": "126.94888,37.54416 126.94857,37.544296"
                }
              ]
            }
          ],
          "totalWalkTime": 781,
          "transferCount": 1,
          "totalDistance": 6053,
          "pathType": 2,
          "totalWalkDistance": 896
        },
        {
          "fare": {
            "regular": {
              "totalFare": 1200,
              "currency": {
                "symbol": "￦",
                "currency": "원",
                "currencyCode": "KRW"
              }
            }
          },
          "totalTime": 1946,
          "legs": [
            {
              "mode": "WALK",
              "sectionTime": 641,
              "distance": 789,
              "start": {
                "name": "출발지",
                "lon": 126.9000838470429,
                "lat": 37.55200750679765
              },
              "end": {
                "name": "화평교회",
                "lon": 126.90122222222222,
                "lat": 37.55443888888889
              },
              "steps": [
                {
                  "streetName": "보행자도로",
                  "distance": 184,
                  "description": "보행자도로 을 따라 184m 이동",
                  "linestring": "126.90008,37.55201 126.90051,37.551697 126.900894,37.551422 126.90119,37.5512 126.90136,37.551056 126.90157,37.55085"
                },
                {
                  "streetName": "보행자도로",
                  "distance": 85,
                  "description": "좌회전 후 보행자도로 을 따라 85m 이동 ",
                  "linestring": "126.90157,37.55085 126.90163,37.55096 126.90174,37.55099 126.90194,37.55108 126.90207,37.551205 126.902214,37.551273 126.90229,37.551254"
                },
                {
                  "streetName": "보행자도로",
                  "distance": 35,
                  "description": "좌회전 후 보행자도로 을 따라 35m 이동 ",
                  "linestring": "126.90229,37.551254 126.90233,37.551334 126.902596,37.551426"
                },
                {
                  "streetName": "보행자도로",
                  "distance": 22,
                  "description": "지하보도 진입 후 보행자도로 을 따라 22m 이동 ",
                  "linestring": "126.902596,37.551426 126.902664,37.551456 126.90277,37.55156"
                },
                {
                  "streetName": "동교로",
                  "distance": 44,
                  "description": "직진 후 동교로 을 따라 44m 이동 ",
                  "linestring": "126.90277,37.55156 126.902855,37.551556 126.90298,37.55155 126.90303,37.551567 126.90325,37.551636"
                },
                {
                  "streetName": "보행자도로",
                  "distance": 269,
                  "description": "좌회전 후 보행자도로 을 따라 269m 이동 ",
                  "linestring": "126.90325,37.551636 126.90326,37.55167 126.903015,37.55187 126.90247,37.552284 126.9024,37.552345 126.90238,37.552357 126.90207,37.5526 126.90205,37.552612 126.90203,37.552635 126.902,37.55269 126.902,37.552715 126.90204,37.55276 126.902084,37.552826 126.90211,37.55287 126.902176,37.553074 126.902214,37.553123 126.90224,37.553154 126.902504,37.55351 126.902504,37.553547"
                },
                {
                  "streetName": "희우정로",
                  "distance": 150,
                  "description": "신흥자동차공업사 에서 10시 방향 좌회전 후 희우정로 을 따라 150m 이동 ",
                  "linestring": "126.902504,37.553547 126.902435,37.553593 126.90232,37.553665 126.90217,37.553772 126.90205,37.553852 126.901985,37.553898 126.901924,37.553944 126.901886,37.55397 126.90142,37.55429 126.901215,37.554432"
                }
              ]
            },
            {
              "mode": "BUS",
              "routeColor": "53B332",
              "sectionTime": 335,
              "route": "마을:마포16",
              "distance": 1242,
              "start": {
                "name": "화평교회",
                "lon": 126.90122222222222,
                "lat": 37.55443888888889
              },
              "passStopList": {
                "stationList": [
                  {
                    "index": 0,
                    "stationName": "화평교회",
                    "lon": "126.901222",
                    "lat": "37.554439",
                    "stationID": "757336"
                  },
                  {
                    "index": 1,
                    "stationName": "망원1동파출소",
                    "lon": "126.902714",
                    "lat": "37.553422",
                    "stationID": "757271"
                  },
                  {
                    "index": 2,
                    "stationName": "마포한강아이파크아파트",
                    "lon": "126.904214",
                    "lat": "37.552406",
                    "stationID": "757217"
                  },
                  {
                    "index": 3,
                    "stationName": "하모니마트",
                    "lon": "126.906028",
                    "lat": "37.552308",
                    "stationID": "757210"
                  },
                  {
                    "index": 4,
                    "stationName": "새서울의원",
                    "lon": "126.907011",
                    "lat": "37.551286",
                    "stationID": "757171"
                  },
                  {
                    "index": 5,
                    "stationName": "남경장",
                    "lon": "126.909869",
                    "lat": "37.548689",
                    "stationID": "757050"
                  },
                  {
                    "index": 6,
                    "stationName": "양화진성지공원입구",
                    "lon": "126.912225",
                    "lat": "37.548639",
                    "stationID": "757031"
                  }
                ]
              },
              "end": {
                "name": "양화진성지공원입구",
                "lon": 126.912225,
                "lat": 37.54863888888889
              },
              "type": 3,
              "passShape": {
                "linestring": "126.901233,37.554475 126.902747,37.553444 126.904244,37.552428 126.904744,37.552092 126.905158,37.552069 126.906000,37.552336 126.906542,37.552508 126.906911,37.551794 126.907056,37.551292 126.907097,37.551150 126.907150,37.551083 126.908083,37.550311 126.909825,37.548808 126.909894,37.548719 126.909922,37.548689 126.909989,37.548544 126.909619,37.548544 126.908222,37.548628 126.907942,37.548586 126.907725,37.548519 126.907500,37.548408 126.907333,37.548289 126.907217,37.548156 126.907133,37.548036 126.907064,37.547878 126.907033,37.547736 126.907053,37.547444 126.907092,37.547275 126.907153,37.547161 126.907308,37.546978 126.908308,37.546175 126.908672,37.546028 126.908903,37.545961 126.909106,37.545931 126.909294,37.545942 126.909522,37.545983 126.909733,37.546058 126.909903,37.546164 126.910044,37.546289 126.910139,37.546417 126.910261,37.546664 126.910444,37.547769 126.910525,37.547939 126.910600,37.548072 126.910681,37.548164 126.910850,37.548322 126.911136,37.548536 126.912192,37.548778"
              }
            },
            {
              "mode": "TRANSFER",
              "sectionTime": 176,
              "distance": 162,
              "start": {
                "name": "양화진성지공원입구",
                "lon": 126.912225,
                "lat": 37.54863888888889
              },
              "end": {
                "name": "합정역",
                "lon": 126.913075,
                "lat": 37.54895833333333
              },
              "passShape": {
                "linestring": "126.912225,37.548639 126.912264,37.548606 126.912489,37.548631 126.912706,37.548669 126.912878,37.548697 126.912914,37.548706 126.912953,37.548708 126.913089,37.548717 126.913156,37.548717 126.913214,37.548717 126.913319,37.548719 126.913328,37.548878 126.913375,37.548931 126.913314,37.548956 126.913225,37.549081 126.913075,37.548958"
              }
            },
            {
              "mode": "BUS",
              "routeColor": "0068B7",
              "sectionTime": 689,
              "route": "간선:604",
              "distance": 4236,
              "start": {
                "name": "합정역",
                "lon": 126.913075,
                "lat": 37.54895833333333
              },
              "passStopList": {
                "stationList": [
                  {
                    "index": 0,
                    "stationName": "합정역",
                    "lon": "126.913075",
                    "lat": "37.548958",
                    "stationID": "757063"
                  },
                  {
                    "index": 1,
                    "stationName": "서교동(중)",
                    "lon": "126.919483",
                    "lat": "37.553603",
                    "stationID": "757280"
                  },
                  {
                    "index": 2,
                    "stationName": "홍대입구역",
                    "lon": "126.923531",
                    "lat": "37.556544",
                    "stationID": "757473"
                  },
                  {
                    "index": 3,
                    "stationName": "동교동삼거리(중)",
                    "lon": "126.928264",
                    "lat": "37.558164",
                    "stationID": "757580"
                  },
                  {
                    "index": 4,
                    "stationName": "신촌역",
                    "lon": "126.934767",
                    "lat": "37.555711",
                    "stationID": "757407"
                  },
                  {
                    "index": 5,
                    "stationName": "신촌로터리",
                    "lon": "126.936925",
                    "lat": "37.553867",
                    "stationID": "757293"
                  },
                  {
                    "index": 6,
                    "stationName": "서강대학교",
                    "lon": "126.937367",
                    "lat": "37.551822",
                    "stationID": "757183"
                  },
                  {
                    "index": 7,
                    "stationName": "광성중고등학교",
                    "lon": "126.938708",
                    "lat": "37.549314",
                    "stationID": "757070"
                  },
                  {
                    "index": 8,
                    "stationName": "대흥역",
                    "lon": "126.941192",
                    "lat": "37.548094",
                    "stationID": "756986"
                  },
                  {
                    "index": 9,
                    "stationName": "용강초등학교",
                    "lon": "126.943542",
                    "lat": "37.547058",
                    "stationID": "756926"
                  },
                  {
                    "index": 10,
                    "stationName": "동도중학교.서울디자인고등학교",
                    "lon": "126.946833",
                    "lat": "37.545614",
                    "stationID": "756848"
                  },
                  {
                    "index": 11,
                    "stationName": "공덕역1번출구",
                    "lon": "126.949372",
                    "lat": "37.544508",
                    "stationID": "756781"
                  }
                ]
              },
              "end": {
                "name": "공덕역1번출구",
                "lon": 126.94937222222222,
                "lat": 37.54450833333333
              },
              "type": 11,
              "passShape": {
                "linestring": "126.913061,37.548992 126.913222,37.549044 126.913392,37.549131 126.913539,37.549211 126.913922,37.549433 126.915642,37.550683 126.918203,37.552625 126.918333,37.552722 126.919511,37.553597 126.921542,37.555106 126.921675,37.555206 126.921817,37.555311 126.923508,37.556578 126.926050,37.558478 126.926281,37.558589 126.926428,37.558625 126.926564,37.558644 126.926789,37.558647 126.926994,37.558611 126.928261,37.558142 126.931608,37.556903 126.931744,37.556856 126.934833,37.555758 126.936192,37.555275 126.936483,37.555183 126.936708,37.555136 126.936794,37.554975 126.936850,37.554544 126.936969,37.553864 126.937194,37.552572 126.937389,37.551878 126.937411,37.551817 126.937564,37.551381 126.937794,37.550858 126.938333,37.549889 126.938533,37.549575 126.938706,37.549369 126.938731,37.549344 126.938850,37.549233 126.939011,37.549128 126.939256,37.549003 126.941208,37.548128 126.941769,37.547875 126.941928,37.547806 126.943556,37.547092 126.946075,37.545989 126.946833,37.545650 126.947872,37.545192 126.949397,37.544539"
              }
            },
            {
              "mode": "WALK",
              "sectionTime": 105,
              "distance": 100,
              "start": {
                "name": "공덕역1번출구",
                "lon": 126.94937222222222,
                "lat": 37.54450833333333
              },
              "end": {
                "name": "도착지",
                "lon": 126.9484912479837,
                "lat": 37.54417282802694
              },
              "steps": [
                {
                  "streetName": "백범로",
                  "distance": 18,
                  "description": "백범로 을 따라 18m 이동",
                  "linestring": "126.94935,37.54447 126.94934,37.544476 126.949165,37.54455"
                },
                {
                  "streetName": "",
                  "distance": 44,
                  "description": "청해수산 에서 좌회전 후 44m 이동 ",
                  "linestring": "126.949165,37.54455 126.949135,37.544502 126.94892,37.544224 126.94891,37.54421"
                },
                {
                  "streetName": "",
                  "distance": 6,
                  "description": "횡단보도 후 6m 이동 ",
                  "linestring": "126.94891,37.54421 126.94888,37.54416"
                },
                {
                  "streetName": "보행자도로",
                  "distance": 32,
                  "description": "우회전 후 보행자도로 을 따라 32m 이동 ",
                  "linestring": "126.94888,37.54416 126.94857,37.544296"
                }
              ]
            }
          ],
          "totalWalkTime": 922,
          "transferCount": 1,
          "totalDistance": 6016,
          "pathType": 2,
          "totalWalkDistance": 1051
        },
        {
          "fare": {
            "regular": {
              "totalFare": 1250,
              "currency": {
                "symbol": "￦",
                "currency": "원",
                "currencyCode": "KRW"
              }
            }
          },
          "totalTime": 1930,
          "legs": [
            {
              "mode": "WALK",
              "sectionTime": 641,
              "distance": 789,
              "start": {
                "name": "출발지",
                "lon": 126.9000838470429,
                "lat": 37.55200750679765
              },
              "end": {
                "name": "화평교회",
                "lon": 126.90122222222222,
                "lat": 37.55443888888889
              },
              "steps": [
                {
                  "streetName": "보행자도로",
                  "distance": 184,
                  "description": "보행자도로 을 따라 184m 이동",
                  "linestring": "126.90008,37.55201 126.90051,37.551697 126.900894,37.551422 126.90119,37.5512 126.90136,37.551056 126.90157,37.55085"
                },
                {
                  "streetName": "보행자도로",
                  "distance": 85,
                  "description": "좌회전 후 보행자도로 을 따라 85m 이동 ",
                  "linestring": "126.90157,37.55085 126.90163,37.55096 126.90174,37.55099 126.90194,37.55108 126.90207,37.551205 126.902214,37.551273 126.90229,37.551254"
                },
                {
                  "streetName": "보행자도로",
                  "distance": 35,
                  "description": "좌회전 후 보행자도로 을 따라 35m 이동 ",
                  "linestring": "126.90229,37.551254 126.90233,37.551334 126.902596,37.551426"
                },
                {
                  "streetName": "보행자도로",
                  "distance": 22,
                  "description": "지하보도 진입 후 보행자도로 을 따라 22m 이동 ",
                  "linestring": "126.902596,37.551426 126.902664,37.551456 126.90277,37.55156"
                },
                {
                  "streetName": "동교로",
                  "distance": 44,
                  "description": "직진 후 동교로 을 따라 44m 이동 ",
                  "linestring": "126.90277,37.55156 126.902855,37.551556 126.90298,37.55155 126.90303,37.551567 126.90325,37.551636"
                },
                {
                  "streetName": "보행자도로",
                  "distance": 269,
                  "description": "좌회전 후 보행자도로 을 따라 269m 이동 ",
                  "linestring": "126.90325,37.551636 126.90326,37.55167 126.903015,37.55187 126.90247,37.552284 126.9024,37.552345 126.90238,37.552357 126.90207,37.5526 126.90205,37.552612 126.90203,37.552635 126.902,37.55269 126.902,37.552715 126.90204,37.55276 126.902084,37.552826 126.90211,37.55287 126.902176,37.553074 126.902214,37.553123 126.90224,37.553154 126.902504,37.55351 126.902504,37.553547"
                },
                {
                  "streetName": "희우정로",
                  "distance": 150,
                  "description": "신흥자동차공업사 에서 10시 방향 좌회전 후 희우정로 을 따라 150m 이동 ",
                  "linestring": "126.902504,37.553547 126.902435,37.553593 126.90232,37.553665 126.90217,37.553772 126.90205,37.553852 126.901985,37.553898 126.901924,37.553944 126.901886,37.55397 126.90142,37.55429 126.901215,37.554432"
                }
              ]
            },
            {
              "mode": "BUS",
              "routeColor": "53B332",
              "sectionTime": 335,
              "route": "마을:마포16",
              "distance": 1242,
              "start": {
                "name": "화평교회",
                "lon": 126.90122222222222,
                "lat": 37.55443888888889
              },
              "passStopList": {
                "stationList": [
                  {
                    "index": 0,
                    "stationName": "화평교회",
                    "lon": "126.901222",
                    "lat": "37.554439",
                    "stationID": "757336"
                  },
                  {
                    "index": 1,
                    "stationName": "망원1동파출소",
                    "lon": "126.902714",
                    "lat": "37.553422",
                    "stationID": "757271"
                  },
                  {
                    "index": 2,
                    "stationName": "마포한강아이파크아파트",
                    "lon": "126.904214",
                    "lat": "37.552406",
                    "stationID": "757217"
                  },
                  {
                    "index": 3,
                    "stationName": "하모니마트",
                    "lon": "126.906028",
                    "lat": "37.552308",
                    "stationID": "757210"
                  },
                  {
                    "index": 4,
                    "stationName": "새서울의원",
                    "lon": "126.907011",
                    "lat": "37.551286",
                    "stationID": "757171"
                  },
                  {
                    "index": 5,
                    "stationName": "남경장",
                    "lon": "126.909869",
                    "lat": "37.548689",
                    "stationID": "757050"
                  },
                  {
                    "index": 6,
                    "stationName": "양화진성지공원입구",
                    "lon": "126.912225",
                    "lat": "37.548639",
                    "stationID": "757031"
                  }
                ]
              },
              "end": {
                "name": "양화진성지공원입구",
                "lon": 126.912225,
                "lat": 37.54863888888889
              },
              "type": 3,
              "passShape": {
                "linestring": "126.901233,37.554475 126.902747,37.553444 126.904244,37.552428 126.904744,37.552092 126.905158,37.552069 126.906000,37.552336 126.906542,37.552508 126.906911,37.551794 126.907056,37.551292 126.907097,37.551150 126.907150,37.551083 126.908083,37.550311 126.909825,37.548808 126.909894,37.548719 126.909922,37.548689 126.909989,37.548544 126.909619,37.548544 126.908222,37.548628 126.907942,37.548586 126.907725,37.548519 126.907500,37.548408 126.907333,37.548289 126.907217,37.548156 126.907133,37.548036 126.907064,37.547878 126.907033,37.547736 126.907053,37.547444 126.907092,37.547275 126.907153,37.547161 126.907308,37.546978 126.908308,37.546175 126.908672,37.546028 126.908903,37.545961 126.909106,37.545931 126.909294,37.545942 126.909522,37.545983 126.909733,37.546058 126.909903,37.546164 126.910044,37.546289 126.910139,37.546417 126.910261,37.546664 126.910444,37.547769 126.910525,37.547939 126.910600,37.548072 126.910681,37.548164 126.910850,37.548322 126.911136,37.548536 126.912192,37.548778"
              }
            },
            {
              "mode": "TRANSFER",
              "sectionTime": 158,
              "distance": 140,
              "start": {
                "name": "양화진성지공원입구",
                "lon": 126.912225,
                "lat": 37.54863888888889
              },
              "end": {
                "name": "합정",
                "lon": 126.91360555555555,
                "lat": 37.54893888888889
              },
              "passShape": {
                "linestring": "126.912225,37.548639 126.912264,37.548606 126.912489,37.548631 126.912706,37.548669 126.912878,37.548697 126.912914,37.548706 126.912953,37.548708 126.913089,37.548717 126.913156,37.548717 126.913214,37.548717 126.913319,37.548719 126.913328,37.548878 126.913375,37.548931 126.913500,37.548942 126.913606,37.548939"
              }
            },
            {
              "mode": "SUBWAY",
              "routeColor": "003DA5",
              "sectionTime": 424,
              "route": "수도권6호선",
              "distance": 3523,
              "start": {
                "name": "합정",
                "lon": 126.91360555555555,
                "lat": 37.54893888888889
              },
              "passStopList": {
                "stationList": [
                  {
                    "index": 0,
                    "stationName": "합정",
                    "lon": "126.913606",
                    "lat": "37.548939",
                    "stationID": "110613"
                  },
                  {
                    "index": 1,
                    "stationName": "상수",
                    "lon": "126.922381",
                    "lat": "37.547761",
                    "stationID": "110614"
                  },
                  {
                    "index": 2,
                    "stationName": "광흥창",
                    "lon": "126.932053",
                    "lat": "37.547478",
                    "stationID": "110615"
                  },
                  {
                    "index": 3,
                    "stationName": "대흥",
                    "lon": "126.942256",
                    "lat": "37.547719",
                    "stationID": "110616"
                  },
                  {
                    "index": 4,
                    "stationName": "공덕",
                    "lon": "126.951986",
                    "lat": "37.543506",
                    "stationID": "110617"
                  }
                ]
              },
              "end": {
                "name": "공덕",
                "lon": 126.95198611111111,
                "lat": 37.543505555555555
              },
              "type": 6,
              "passShape": {
                "linestring": "126.913603,37.548933 126.913608,37.548931 126.913892,37.548825 126.914575,37.548694 126.917639,37.548061 126.917711,37.548047 126.917783,37.548033 126.917856,37.548019 126.917925,37.548008 126.917997,37.547997 126.918069,37.547986 126.918142,37.547975 126.918214,37.547964 126.918286,37.547956 126.918358,37.547947 126.918431,37.547939 126.918506,37.547931 126.918578,37.547925 126.918650,37.547919 126.918725,37.547914 126.918797,37.547908 126.918825,37.547906 126.918869,37.547903 126.918942,37.547900 126.919017,37.547897 126.919089,37.547894 126.919164,37.547892 126.921181,37.547814 126.922381,37.547761 126.922758,37.547744 126.923672,37.547731 126.932053,37.547478 126.932772,37.547456 126.933969,37.547411 126.935947,37.547339 126.936400,37.547331 126.936775,37.547331 126.936878,37.547339 126.936978,37.547353 126.937075,37.547375 126.939067,37.548003 126.939406,37.548111 126.939486,37.548136 126.940006,37.548300 126.940044,37.548308 126.940083,37.548319 126.940125,37.548328 126.940167,37.548333 126.940206,37.548339 126.940247,37.548344 126.940289,37.548347 126.940328,37.548350 126.940369,37.548353 126.940411,37.548353 126.940453,37.548353 126.940494,37.548350 126.940533,37.548350 126.940575,37.548344 126.940617,37.548342 126.940658,37.548333 126.940697,37.548328 126.940739,37.548319 126.940778,37.548311 126.940817,37.548303 126.940856,37.548292 126.941086,37.548217 126.941289,37.548139 126.941575,37.548017 126.942256,37.547719 126.944972,37.546544 126.947861,37.545289 126.950878,37.544019 126.951025,37.543950 126.951986,37.543506"
              }
            },
            {
              "mode": "WALK",
              "sectionTime": 372,
              "distance": 374,
              "start": {
                "name": "공덕",
                "lon": 126.95198611111111,
                "lat": 37.543505555555555
              },
              "end": {
                "name": "도착지",
                "lon": 126.9484912479837,
                "lat": 37.54417282802694
              },
              "steps": [
                {
                  "streetName": "",
                  "distance": 100,
                  "description": "100m 이동",
                  "linestring": "126.95196,37.54347 126.95186,37.543514 126.95135,37.543743 126.95098,37.54391"
                },
                {
                  "streetName": "",
                  "distance": 20,
                  "description": "신라명과 공덕역 에서 좌회전 후 20m 이동 ",
                  "linestring": "126.95098,37.54391 126.95087,37.54375"
                },
                {
                  "streetName": "",
                  "distance": 44,
                  "description": "신라명과 공덕역 에서 우회전 후 44m 이동 ",
                  "linestring": "126.95087,37.54375 126.950485,37.543938 126.95043,37.54394"
                },
                {
                  "streetName": "백범로",
                  "distance": 45,
                  "description": "공덕역  1번출구 에서 직진 후 백범로 을 따라 45m 이동 ",
                  "linestring": "126.95043,37.54394 126.95029,37.544003 126.94998,37.544132"
                },
                {
                  "streetName": "보행자도로",
                  "distance": 28,
                  "description": "횡단보도 후 보행자도로 을 따라 28m 이동 ",
                  "linestring": "126.94998,37.544132 126.94972,37.544262"
                },
                {
                  "streetName": "",
                  "distance": 100,
                  "description": "탐앤탐스 공덕역점 에서 좌회전 후 100m 이동 ",
                  "linestring": "126.94972,37.544262 126.949554,37.54396 126.949554,37.54396 126.94949,37.543953 126.949234,37.544064 126.94891,37.54421"
                },
                {
                  "streetName": "",
                  "distance": 6,
                  "description": "멕시칸치킨 공덕로타리점 에서 좌측 횡단보도 후 6m 이동 ",
                  "linestring": "126.94891,37.54421 126.94888,37.54416"
                },
                {
                  "streetName": "보행자도로",
                  "distance": 31,
                  "description": "우회전 후 보행자도로 을 따라 31m 이동 ",
                  "linestring": "126.94888,37.54416 126.94857,37.544296"
                }
              ]
            }
          ],
          "totalWalkTime": 1171,
          "transferCount": 1,
          "totalDistance": 5512,
          "pathType": 3,
          "totalWalkDistance": 1303
        },
        {
          "fare": {
            "regular": {
              "totalFare": 1250,
              "currency": {
                "symbol": "￦",
                "currency": "원",
                "currencyCode": "KRW"
              }
            }
          },
          "totalTime": 1929,
          "legs": [
            {
              "mode": "WALK",
              "sectionTime": 641,
              "distance": 789,
              "start": {
                "name": "출발지",
                "lon": 126.9000838470429,
                "lat": 37.55200750679765
              },
              "end": {
                "name": "화평교회",
                "lon": 126.90122222222222,
                "lat": 37.55443888888889
              },
              "steps": [
                {
                  "streetName": "보행자도로",
                  "distance": 184,
                  "description": "보행자도로 을 따라 184m 이동",
                  "linestring": "126.90008,37.55201 126.90051,37.551697 126.900894,37.551422 126.90119,37.5512 126.90136,37.551056 126.90157,37.55085"
                },
                {
                  "streetName": "보행자도로",
                  "distance": 85,
                  "description": "좌회전 후 보행자도로 을 따라 85m 이동 ",
                  "linestring": "126.90157,37.55085 126.90163,37.55096 126.90174,37.55099 126.90194,37.55108 126.90207,37.551205 126.902214,37.551273 126.90229,37.551254"
                },
                {
                  "streetName": "보행자도로",
                  "distance": 35,
                  "description": "좌회전 후 보행자도로 을 따라 35m 이동 ",
                  "linestring": "126.90229,37.551254 126.90233,37.551334 126.902596,37.551426"
                },
                {
                  "streetName": "보행자도로",
                  "distance": 22,
                  "description": "지하보도 진입 후 보행자도로 을 따라 22m 이동 ",
                  "linestring": "126.902596,37.551426 126.902664,37.551456 126.90277,37.55156"
                },
                {
                  "streetName": "동교로",
                  "distance": 44,
                  "description": "직진 후 동교로 을 따라 44m 이동 ",
                  "linestring": "126.90277,37.55156 126.902855,37.551556 126.90298,37.55155 126.90303,37.551567 126.90325,37.551636"
                },
                {
                  "streetName": "보행자도로",
                  "distance": 269,
                  "description": "좌회전 후 보행자도로 을 따라 269m 이동 ",
                  "linestring": "126.90325,37.551636 126.90326,37.55167 126.903015,37.55187 126.90247,37.552284 126.9024,37.552345 126.90238,37.552357 126.90207,37.5526 126.90205,37.552612 126.90203,37.552635 126.902,37.55269 126.902,37.552715 126.90204,37.55276 126.902084,37.552826 126.90211,37.55287 126.902176,37.553074 126.902214,37.553123 126.90224,37.553154 126.902504,37.55351 126.902504,37.553547"
                },
                {
                  "streetName": "희우정로",
                  "distance": 150,
                  "description": "신흥자동차공업사 에서 10시 방향 좌회전 후 희우정로 을 따라 150m 이동 ",
                  "linestring": "126.902504,37.553547 126.902435,37.553593 126.90232,37.553665 126.90217,37.553772 126.90205,37.553852 126.901985,37.553898 126.901924,37.553944 126.901886,37.55397 126.90142,37.55429 126.901215,37.554432"
                }
              ]
            },
            {
              "mode": "BUS",
              "routeColor": "53B332",
              "sectionTime": 335,
              "route": "마을:마포16",
              "distance": 1242,
              "start": {
                "name": "화평교회",
                "lon": 126.90122222222222,
                "lat": 37.55443888888889
              },
              "passStopList": {
                "stationList": [
                  {
                    "index": 0,
                    "stationName": "화평교회",
                    "lon": "126.901222",
                    "lat": "37.554439",
                    "stationID": "757336"
                  },